[
  {
    "business": {
      "address": {
        "country": "Россия",
        "formatted_address": "Россия, Москва, МКАД, 53-й километр, 4",
        "house": "4",
        "locality": "Москва",
        "province": "Москва",
        "street": "МКАД, 53-й километр"
      },
      "distance": {
        "text": "500 м",
        "value": 500
      },
      "id": "120601880669",
      "name": "Газпромнефть",
      "open_hours": {
        "state": {
          "is_open_now": true,
          "short_text": "24 ч",
          "text": "Круглосуточно"
        },
        "text": "ежедневно, круглосуточно"
      }
    },
    "description": "МКАД, 53-й километр, 4, Москва",
    "geometry": [
      37.393827,
      55.706765
    ],
    "name": "Газпромнефть"
  },
  {
    "business": {
      "address": {
        "area": "Одинцовский городской округ",
        "country": "Россия",
        "formatted_address": "Россия, Московская область, Одинцовский городской округ, М-1 Беларусь, 19-й километр",
        "province": "Московская область",
        "street": "М-1 Беларусь, 19-й километр"
      },
      "distance": {
        "text": "6,5 км",
        "value": 6500
      },
      "id": "1806387543",
      "name": "BP",
      "open_hours": {
        "state": {
          "is_open_now": true,
          "short_text": "24 ч",
          "text": "Круглосуточно"
        },
        "text": "ежедневно, круглосуточно"
      }
    },
    "description": "Россия, Московская область, Одинцовский городской округ, М-1 Беларусь, 19-й километр",
    "geometry": [
      37.341724,
      55.698187
    ],
    "name": "BP",
    "references": [
      {
        "id": "a0603e6ef7c4b6d3bd1c7543504414cf",
        "scope": "gas_stations"
      }
    ]
  },
  {
    "business": {
      "address": {
        "area": "Одинцовский городской округ",
        "country": "Россия",
        "formatted_address": "Россия, Московская область, Одинцовский городской округ, деревня Раздоры, Рублёво-Успенское шоссе, 1-й километр, 1/1",
        "house": "1/1",
        "locality": "деревня Раздоры",
        "province": "Московская область",
        "street": "Рублёво-Успенское шоссе, 1-й километр"
      },
      "distance": {
        "text": "8 км",
        "value": 8000
      },
      "id": "1198718997",
      "name": "Лукойл",
      "open_hours": {
        "state": {
          "is_open_now": true,
          "short_text": "24 ч",
          "text": "Круглосуточно"
        },
        "text": "ежедневно, круглосуточно"
      }
    },
    "description": "Рублёво-Успенское шоссе, 1-й километр, 1/1, д. Раздоры",
    "geometry": [
      37.364836,
      55.76493
    ],
    "name": "Лукойл"
  }
]
