{
  "client_requirements": {
    "door_to_door": false,
    "taxi_class": "courier"
  },
  "emergency_contact": {
    "name": "Отправитель",
    "phone": "+79998887766"
  },
  "items": [
    {
      "cost_currency": "RUB",
      "cost_value": "100",
      "droppof_point": 2,
      "pickup_point": 1,
      "quantity": 2,
      "title": "хлебушек"
    },
    {
      "cost_currency": "RUB",
      "cost_value": "100",
      "droppof_point": 3,
      "pickup_point": 1,
      "quantity": 1,
      "title": "хлебушек"
    }
  ],
  "route_points": [
    {
      "address": {
        "building": "19",
        "city": "Москва",
        "coordinates": [
          37.73310468874161,
          55.70329157000376
        ],
        "country": "Россия",
        "fullname": "Россия, Москва, Люблинская улица, 19",
        "street": "Люблинская улица"
      },
      "contact": {
        "name": " Отправитель",
        "phone": "+79997777777"
      },
      "point_id": 1,
      "skip_confirmation": true,
      "type": "source",
      "visit_order": 1
    },
    {
      "address": {
        "building": "40",
        "city": "Москва",
        "coordinates": [
          37.73632964061161,
          55.686121950176314
        ],
        "country": "Россия",
        "fullname": "Россия, Москва, Люблинская улица, 40",
        "street": "Люблинская улица"
      },
      "contact": {
        "name": "Получатель1",
        "phone": "+79998888888"
      },
      "external_order_id": "",
      "point_id": 2,
      "skip_confirmation": true,
      "type": "destination",
      "visit_order": 2
    },
    {
      "address": {
        "building": "60",
        "city": "Москва",
        "coordinates": [
          37.738243,
          55.673692
        ],
        "country": "Россия",
        "fullname": "Россия, Москва, Люблинская улица, 60",
        "street": "Люблинская улица"
      },
      "contact": {
        "name": "Получатель2",
        "phone": "+79997778888"
      },
      "external_order_id": "",
      "point_id": 3,
      "skip_confirmation": true,
      "type": "destination",
      "visit_order": 3
    },
    {
      "address": {
        "building": "19",
        "city": "Москва",
        "coordinates": [
          37.73310468874161,
          55.70329157000376
        ],
        "country": "Россия",
        "fullname": "Россия, Москва, Люблинская улица, 19",
        "street": "Люблинская улица"
      },
      "contact": {
        "name": " Отправитель",
        "phone": "+79998887766"
      },
      "point_id": 4,
      "skip_confirmation": true,
      "type": "return",
      "visit_order": 4
    }
  ],
  "skip_door_to_door": true
}
