{
  "geo_objects": [
    {
      "description": "Russia, Moscow",
      "geocoder": {
        "address": {
          "country": "Russia",
          "formatted_address": "Russia, Moscow, Oktyabrskaya street, 16A",
          "locality": "Moscow"
        }
      },
      "geometry": [
        37.0,
        55.0
      ],
      "ll": "37.000000,55.000000",
      "name": "Oktyabrskaya street, 16A",
      "uri": "ymapsbm1://URI_0_0"
    },
    {
      "description": "Russia, Moscow",
      "geocoder": {
        "address": {
          "country": "Russia",
          "formatted_address": "Russia, Moscow, Petrovskiy alley, 21",
          "locality": "Moscow"
        }
      },
      "geometry": [
        37.1,
        55.1
      ],
      "ll": "37.100000,55.100000",
      "name": "Petrovskiy alley, 21",
      "uri": "ymapsbm1://URI_1_1"
    },
    {
      "description": "Russia, Moscow",
      "geocoder": {
        "address": {
          "country": "Russia",
          "formatted_address": "Russia, Moscow, 2nd Krasnogvardeysky Drive, 10",
          "house": "10",
          "locality": "Moscow"
        }
      },
      "geometry": [
        37.3,
        55.3
      ],
      "ll": "37.300000,55.300000",
      "name": "2nd Krasnogvardeysky Drive, 10",
      "uri": "ymapsbm1://URI_3_3"
    },
    {
      "description": "Russia, Moscow",
      "geocoder": {
        "address": {
          "country": "Russia",
          "formatted_address": "Russia, Moscow, Lva Tolstogo Street, 16",
          "house": "16",
          "locality": "Moscow"
        }
      },
      "geometry": [
        37.4,
        55.4
      ],
      "ll": "37.400000,55.400000",
      "name": "Lva Tolstogo Street, 16",
      "uri": "ymapsbm1://URI_4_4"
    },
    {
      "description": "Russia, Moscow",
      "geocoder": {
        "address": {
          "country": "Russia",
          "formatted_address": "Russia, Moscow, Tverskaya Zastava Square, 7",
          "locality": "Moscow"
        }
      },
      "geometry": [
        37.7,
        55.7
      ],
      "ll": "37.700000,55.700000",
      "name": "Tverskaya Zastava Square, 7",
      "uri": "ymapsbm1://URI_7_7"
    },
    {
      "description": "Russia, Moscow",
      "geocoder": {
        "address": {
          "country": "Russia",
          "formatted_address": "Russia, Moscow, Komsomolskaya square, 2",
          "locality": "Moscow"
        }
      },
      "geometry": [
        36.0,
        54.0
      ],
      "ll": "36.900000,54.900000",
      "name": "Komsomolskaya square, 2",
      "uri": "ymapsbm1://URI_9_9"
    },
    {
      "business": {
        "address": {
          "country": "Russia",
          "formatted_address": "Russia, Moscow",
          "locality": "Moscow"
        },
        "chains": [
          {
            "id": "12345",
            "name": "one-door"
          }
        ],
        "class": "restaurant",
        "id": "1088700971",
        "name": "One-door community"
      },
      "description": "Russia, Moscow",
      "geometry": [
        37.9,
        55.9
      ],
      "ll": "37.900000,55.900000",
      "name": "One-door community",
      "uri": "ymapsbm1://URI_8_8"
    },
    {
      "business": {
        "address": {
          "country": "Russia",
          "formatted_address": "Russia, Moscow",
          "locality": "Moscow"
        },
        "class": "restaurant",
        "id": "1088700971",
        "name": "Юзерплэйс"
      },
      "description": "Russia, Moscow",
      "geometry": [
        37.8,
        55.8
      ],
      "ll": "37.800000,55.800000",
      "name": "Юзерплэйс",
      "uri": "ymapsbm1://URI_9_9"
    },
    {
      "description": "Description eats 1",
      "geocoder": {
        "address": {
          "country": "Russia",
          "formatted_address": "Full text eats 1",
          "house": "1",
          "locality": "Moscow"
        }
      },
      "geometry": [
        37.61,
        55.61
      ],
      "ll": "unused",
      "name": "Short text eats 1",
      "uri": "ymapsbm1://eats1_uri"
    },
    {
      "description": "Description bad eats object",
      "geocoder": {
        "address": {
          "country": "Russia",
          "formatted_address": "Full bad eats object",
          "locality": "Moscow"
        },
        "precision": "NUMBER"
      },
      "geometry": [
        40,
        70
      ],
      "ll": "40.000000,70.000000",
      "name": "Short bad eats object",
      "uri": "ymapsbm1://eats_bad"
    },
    {
      "description": "Description eats 2",
      "geocoder": {
        "address": {
          "country": "Russia",
          "formatted_address": "Full text eats 2",
          "house": "1",
          "locality": "Moscow"
        }
      },
      "geometry": [
        38.1,
        54.1
      ],
      "ll": "38.000000,54.000000",
      "name": "Short text eats 2",
      "uri": "ymapsbm1://eats2_uri"
    },
    {
      "description": "Description eats 3",
      "geocoder": {
        "address": {
          "country": "Russia",
          "formatted_address": "Full text eats 3",
          "house": "1",
          "locality": "Moscow"
        }
      },
      "geometry": [
        39.1,
        57.1
      ],
      "ll": "unused",
      "name": "Short text eats 3",
      "uri": "ymapsbm1://eats3_uri"
    },
    {
      "arrival_points": [
        {
          "name": "F2",
          "point": [
            33,
            56
          ]
        },
        {
          "name": "F3",
          "point": [
            33.0001,
            56.0001
          ]
        }
      ],
      "description": "Russia, Moscow",
      "geocoder": {
        "address": {
          "country": "Russia",
          "formatted_address": "Russia, Moscow, Levoberezhnaya street, 12",
          "house": "1",
          "locality": "Moscow"
        }
      },
      "geometry": [
        37.400001,
        55.400001
      ],
      "ll": "33.200000,56.100000",
      "name": "Levoberezhnaya street, 12",
      "uri": "ymapsbm1://URI_10_10"
    },
    {
      "business": {
        "address": {
          "country": "Russia",
          "formatted_address": "Russia, Moscow",
          "locality": "Moscow"
        },
        "chains": [
          {
            "id": "12345",
            "name": "one-door"
          }
        ],
        "class": "restaurant",
        "id": "1088700971",
        "name": "One-door community",
        "short_name": "One-door"
      },
      "description": "Moscow, Russia",
      "geometry": [
        37.666,
        55.666
      ],
      "ll": "37.666000,55.666000",
      "name": "One-door community",
      "uri": "ymapsbm1://URI_12_12"
    },
    {
      "description": "Russia, Moscow",
      "geocoder": {
        "address": {
          "country": "Russia",
          "formatted_address": "Russia, Moscow, Stadium Luzhniki",
          "locality": "Moscow",
          "street": "Stadium Luzhniki"
        }
      },
      "geometry": [
        37.4321,
        55.1234
      ],
      "ll": "37.432100,55.123400",
      "name": "Stadium Luzhniki",
      "uri": "ymapsbm1://URI_X_X"
    },
    {
      "description": "Russia, Moscow",
      "geocoder": {
        "address": {
          "country": "Russia",
          "formatted_address": "Russia, okrug Khimki, Sherementievo",
          "locality": "Moscow",
          "street": "Sherementievo"
        }
      },
      "geometry": [
        10.2,
        20.1
      ],
      "ll": "10.200000,20.100000",
      "name": "Sherementievo",
      "uri": "ymapsbm1://URI_Y_Y"
    }
  ]
}
